,City,Lat,Lng,temp,Cloudiness,Country,Date,Humidity,Max Temp,Wind Speed
0,boa vista,2.82,-60.67,80.6,75,BR,1592438482,83,80.6,2.24
1,saldanha,-33.01,17.94,50.0,11,ZA,1592438644,71,50.0,3.36
2,jamestown,42.1,-79.24,78.8,1,US,1592438529,41,78.8,11.41
3,albany,42.6,-73.97,82.0,0,US,1592438644,47,82.0,1.88
4,hilo,19.73,-155.09,84.2,1,US,1592438640,54,84.2,8.05
5,kattivakkam,13.22,80.32,88.0,40,IN,1592438645,66,88.0,6.93
6,barrow,71.29,-156.79,42.8,1,US,1592438645,70,42.8,12.75
7,ixtapa,20.7,-105.2,84.2,5,MX,1592438645,62,84.2,11.41
8,constitucion,-35.33,-72.42,53.47,89,CL,1592438645,85,53.47,15.41
9,ushuaia,-54.8,-68.3,35.6,57,AR,1592438529,80,35.6,6.93
10,mount gambier,-37.83,140.77,48.2,66,AU,1592438646,81,48.2,12.75
11,rikitea,-23.12,-134.97,75.63,62,PF,1592438646,80,75.63,15.97
12,junction city,39.03,-96.83,93.2,1,US,1592438646,38,93.2,16.11
13,san martin,-33.08,-68.47,50.0,38,AR,1592438646,57,50.0,3.36
14,oriximina,-1.77,-55.87,78.76,33,BR,1592438638,77,78.76,2.75
15,mataura,-46.19,168.86,39.0,4,NZ,1592438527,83,39.0,3.0
16,tasiilaq,65.61,-37.64,39.2,100,GL,1592438646,80,39.2,20.8
17,ponta delgada,37.73,-25.67,62.6,20,PT,1592438511,82,62.6,10.29
18,selma,36.57,-119.61,86.0,0,US,1592438647,27,86.0,8.66
19,ippy,6.27,21.22,68.65,100,CF,1592438647,96,68.65,2.66
20,bluff,-46.6,168.33,39.0,27,NZ,1592438647,83,39.0,3.0
21,olafsvik,64.89,-23.71,48.09,100,IS,1592438647,80,48.09,10.54
22,hobart,-42.88,147.33,39.0,20,AU,1592438541,86,39.0,6.93
23,cherskiy,68.75,161.3,79.72,59,RU,1592438647,24,79.72,6.38
24,kasama,-10.21,31.18,48.09,0,ZM,1592438648,92,48.09,4.9
25,cape town,-33.93,18.42,52.0,31,ZA,1592438648,76,52.0,4.7
26,mar del plata,-38.0,-57.56,60.8,90,AR,1592438434,100,60.8,3.36
27,kahului,20.89,-156.47,89.6,20,US,1592438489,43,89.6,24.16
28,vaini,-21.2,-175.2,77.0,20,TO,1592438648,65,77.0,13.87
29,buraydah,26.33,43.98,84.2,0,SA,1592438648,23,84.2,5.82
30,pemba,-12.97,40.52,71.94,35,MZ,1592438649,73,71.94,15.93
31,ust-nera,64.57,143.2,75.72,14,RU,1592438649,26,75.72,4.47
32,butaritari,3.07,172.79,82.76,20,KI,1592438649,76,82.76,12.37
33,port lincoln,-34.73,135.87,58.44,54,AU,1592438649,58,58.44,22.88
34,hoi an,15.88,108.33,84.2,40,VN,1592438649,70,84.2,3.36
35,lazaro cardenas,17.96,-102.2,84.56,0,MX,1592438401,65,84.56,11.16
36,cenade,46.06,24.01,61.0,40,RO,1592438649,100,61.0,3.15
37,muros,42.78,-9.06,54.0,13,ES,1592438650,89,54.0,1.01
38,salalah,17.02,54.09,84.2,40,OM,1592438650,89,84.2,2.24
39,buala,-8.14,159.59,84.52,61,SB,1592438650,73,84.52,7.0
40,quatre cocos,-20.21,57.76,69.8,75,MU,1592438650,88,69.8,18.34
41,saint-philippe,-21.36,55.77,69.8,20,RE,1592438650,82,69.8,11.41
42,ust-ilimsk,58.0,102.66,60.24,34,RU,1592438650,47,60.24,1.45
43,katsuura,35.13,140.3,75.99,100,JP,1592438650,71,75.99,1.99
44,arraial do cabo,-22.97,-42.03,71.6,8,BR,1592438405,68,71.6,9.17
45,broome,42.25,-75.83,78.8,1,US,1592438651,34,78.8,5.82
46,saskylakh,71.92,114.08,61.14,80,RU,1592438651,55,61.14,16.93
47,comodoro rivadavia,-45.87,-67.5,51.8,82,AR,1592438651,57,51.8,11.41
48,kalat,29.02,66.59,67.93,0,PK,1592438651,33,67.93,7.96
49,kathu,7.92,98.33,75.2,75,TH,1592438651,94,75.2,4.7
50,thompson,55.74,-97.86,41.0,90,CA,1592438652,93,41.0,13.87
51,lompoc,34.64,-120.46,72.0,2,US,1592438652,56,72.0,11.41
52,ilulissat,69.22,-51.1,37.4,51,GL,1592438399,74,37.4,6.93
53,ahuimanu,21.44,-157.84,86.0,20,US,1592438652,58,86.0,11.41
54,gazli,40.13,63.45,69.71,0,UZ,1592438652,24,69.71,8.97
55,bengkulu,-3.8,102.27,76.35,50,ID,1592438652,85,76.35,4.7
56,geraldton,-28.77,114.6,62.6,75,AU,1592438652,72,62.6,17.22
57,port elizabeth,-33.92,25.57,46.4,0,ZA,1592438586,93,46.4,3.36
58,sao joao da barra,-21.64,-41.05,69.94,4,BR,1592438653,75,69.94,9.31
59,naze,28.37,129.48,82.4,75,JP,1592438570,88,82.4,17.22
60,castro,-24.79,-50.01,56.08,2,BR,1592438423,95,56.08,4.83
61,severo-kurilsk,50.68,156.12,46.02,98,RU,1592438653,83,46.02,9.13
62,luderitz,-26.65,15.16,70.92,0,NA,1592438653,22,70.92,21.99
63,puerto ayora,-0.74,-90.35,69.01,71,EC,1592438653,92,69.01,3.0
64,ponta do sol,32.67,-17.1,66.2,20,PT,1592438653,77,66.2,8.05
65,faya,18.39,42.45,77.0,91,SA,1592438654,28,77.0,5.23
66,souillac,-20.52,57.52,69.8,75,MU,1592438654,88,69.8,18.34
67,luganville,-15.53,167.17,80.6,90,VU,1592438654,83,80.6,8.05
68,at-bashi,41.17,75.81,47.25,80,KG,1592438654,55,47.25,1.3
69,cabo san lucas,22.89,-109.91,93.2,20,MX,1592438452,16,93.2,11.41
70,vila franca do campo,37.72,-25.43,62.6,20,PT,1592438654,82,62.6,10.29
71,esperance,-33.87,121.9,51.8,90,AU,1592438655,87,51.8,12.75
72,busselton,-33.65,115.33,51.01,44,AU,1592438643,78,51.01,17.85
73,bredasdorp,-34.53,20.04,39.2,0,ZA,1592438655,93,39.2,5.23
74,atuona,-9.8,-139.03,80.85,1,PF,1592438655,72,80.85,13.85
75,srednekolymsk,67.45,153.68,85.19,3,RU,1592438655,24,85.19,6.91
76,grindavik,63.84,-22.43,48.2,75,IS,1592438655,70,48.2,18.34
77,provideniya,64.38,-173.3,53.6,98,RU,1592438655,71,53.6,13.42
78,albanel,48.88,-72.45,86.0,75,CA,1592438656,40,86.0,10.29
79,torbay,47.67,-52.73,61.0,90,CA,1592438656,41,61.0,24.16
80,chokurdakh,70.63,147.92,81.32,8,RU,1592438656,27,81.32,10.69
81,qaqortoq,60.72,-46.03,42.8,98,GL,1592438656,82,42.8,11.41
82,cap-aux-meules,47.38,-61.86,69.8,90,CA,1592438656,46,69.8,19.46
83,nouadhibou,20.93,-17.03,80.6,0,MR,1592438358,51,80.6,19.46
84,east london,-33.02,27.91,59.27,1,ZA,1592438543,67,59.27,11.01
85,deputatskiy,69.3,139.9,76.01,0,RU,1592438555,27,76.01,9.57
86,dwarka,22.24,68.97,84.58,45,IN,1592438657,82,84.58,6.82
87,cidreira,-30.18,-50.21,64.58,28,BR,1592438538,87,64.58,10.85
88,kavieng,-2.57,150.8,85.17,17,PG,1592438657,67,85.17,8.55
89,port alfred,-33.59,26.89,51.01,0,ZA,1592438657,88,51.01,1.01
90,murdochville,48.96,-65.5,69.3,100,CA,1592438657,62,69.3,6.58
91,faanui,-16.48,-151.75,81.7,100,PF,1592438657,77,81.7,6.98
92,punta arenas,-53.15,-70.92,28.4,0,CL,1592438514,92,28.4,5.57
93,leiva,1.93,-77.3,66.83,83,CO,1592438658,96,66.83,3.42
94,evensk,61.95,159.23,56.19,47,RU,1592438658,70,56.19,10.33
95,tuatapere,-46.13,167.68,39.0,25,NZ,1592438658,83,39.0,3.0
96,carnarvon,-24.87,113.63,66.2,90,AU,1592438658,100,66.2,11.41
97,braintree,51.88,0.55,60.01,99,GB,1592438658,93,60.01,1.01
98,alofi,-19.06,-169.92,77.0,75,NU,1592438658,61,77.0,19.46
99,cozumel,20.51,-86.95,78.01,90,MX,1592438389,88,78.01,8.05
100,florianopolis,-27.61,-48.5,71.01,75,BR,1592438408,83,71.01,11.41
101,leshukonskoye,64.9,45.76,37.99,8,RU,1592438659,79,37.99,2.57
102,tessalit,20.2,1.01,96.28,0,ML,1592438659,11,96.28,15.26
103,goryachegorsk,55.41,88.92,59.49,1,RU,1592438659,73,59.49,4.99
104,cravo norte,6.3,-70.2,78.08,81,CO,1592438659,88,78.08,1.81
105,laguna,38.42,-121.42,90.0,1,US,1592438659,16,90.0,16.11
106,lengshuitan,26.41,111.6,82.02,82,CN,1592438660,75,82.02,10.22
107,hermanus,-34.42,19.23,48.99,21,ZA,1592438649,84,48.99,1.01
108,sorsk,54.0,90.25,55.06,47,RU,1592438660,80,55.06,4.63
109,bayan,46.08,127.4,62.1,6,CN,1592438660,65,62.1,10.18
110,terrace,54.52,-128.6,71.6,75,CA,1592438660,33,71.6,6.93
111,saint-joseph,-21.37,55.62,66.2,20,RE,1592438660,82,66.2,11.41
112,banikoara,11.3,2.44,78.91,18,BJ,1592438660,78,78.91,7.56
113,dikson,73.51,80.55,33.62,92,RU,1592438661,89,33.62,4.63
114,leningradskiy,69.38,178.42,52.0,100,RU,1592438661,49,52.0,9.89
115,shakawe,-18.37,21.85,49.59,0,BW,1592438661,62,49.59,4.76
116,sorland,67.67,12.69,50.74,0,NO,1592438541,78,50.74,22.17
117,nanortalik,60.14,-45.24,38.3,97,GL,1592438540,81,38.3,8.68
118,khatanga,71.97,102.5,51.49,84,RU,1592438535,46,51.49,7.16
119,flinders,-34.58,150.86,57.99,71,AU,1592438662,80,57.99,3.0
120,umm kaddadah,13.6,26.69,86.43,63,SD,1592438662,38,86.43,6.24
121,upernavik,72.79,-56.15,34.5,0,GL,1592438662,87,34.5,7.47
122,nkhata bay,-11.61,34.29,66.87,22,MW,1592438662,70,66.87,10.6
123,tuktoyaktuk,69.45,-133.04,44.6,75,CA,1592438662,93,44.6,10.29
124,port blair,11.67,92.75,82.69,100,IN,1592438662,82,82.69,8.81
125,catalao,-18.17,-47.95,61.63,13,BR,1592438594,78,61.63,7.31
126,shitkino,56.37,98.35,56.7,0,RU,1592438662,58,56.7,8.7
127,adrar,20.5,-10.07,96.28,0,MR,1592438663,17,96.28,17.76
128,komsomolskiy,40.43,71.72,66.2,90,UZ,1592438542,48,66.2,4.7
129,ulladulla,-35.35,150.47,55.0,92,AU,1592438663,81,55.0,5.82
130,saint george,37.1,-113.58,91.0,1,US,1592438645,15,91.0,10.29
131,qui nhon,13.77,109.23,81.93,0,VN,1592438663,68,81.93,3.91
132,mosquera,4.71,-74.23,55.4,40,CO,1592438663,93,55.4,8.05
133,tornio,65.85,24.15,51.8,7,FI,1592438663,93,51.8,5.82
134,new norfolk,-42.78,147.06,36.0,2,AU,1592438663,89,36.0,3.13
135,dunedin,-45.87,170.5,46.0,55,NZ,1592438488,65,46.0,17.0
136,bograd,54.23,90.83,55.4,21,RU,1592438664,87,55.4,2.24
137,khovu-aksy,51.13,93.6,61.05,98,RU,1592438664,62,61.05,0.13
138,waingapu,-9.66,120.26,79.02,86,ID,1592438664,71,79.02,17.85
139,shelburne,44.08,-80.2,80.6,1,CA,1592438665,39,80.6,6.93
140,kodiak,57.79,-152.41,51.8,90,US,1592438665,87,51.8,16.11
141,manokwari,-0.87,134.08,83.3,8,ID,1592438665,71,83.3,5.91
142,kapaa,22.08,-159.32,84.2,20,US,1592438666,62,84.2,14.99
143,nekhayevskiy,50.41,41.76,60.01,0,RU,1592438666,72,60.01,1.01
144,victoria,22.29,114.16,87.01,8,HK,1592438666,70,87.01,10.0
145,tilichiki,60.47,166.1,61.92,19,RU,1592438549,53,61.92,0.6
146,kavaratti,10.57,72.64,84.92,100,IN,1592438666,76,84.92,20.83
147,aklavik,68.22,-135.01,62.6,75,CA,1592438666,63,62.6,6.93
148,georgetown,5.41,100.34,78.8,20,MY,1592438569,88,78.8,8.72
149,itoman,26.12,127.67,86.0,75,JP,1592438667,89,86.0,14.99
150,vondrozo,-22.82,47.28,50.92,25,MG,1592438667,100,50.92,0.63
151,ahipara,-35.17,173.17,60.96,63,NZ,1592438667,80,60.96,8.7
152,genhe,50.78,121.52,58.6,88,CN,1592438667,76,58.6,3.62
153,nikolskoye,59.7,30.79,64.0,0,RU,1592438667,88,64.0,6.71
154,sandur,15.1,76.55,75.78,100,IN,1592438667,76,75.78,18.68
155,nioro,13.35,-15.75,82.65,57,GM,1592438667,62,82.65,11.52
156,klaksvik,62.23,-6.59,48.2,100,FO,1592438667,93,48.2,1.12
157,port macquarie,-31.43,152.92,59.0,75,AU,1592438368,93,59.0,8.05
158,marovoay,-16.1,46.63,69.8,0,MG,1592438668,52,69.8,11.41
159,ust-uda,54.17,103.03,57.16,15,RU,1592438668,54,57.16,3.22
160,ratnagiri,16.98,73.3,80.89,100,IN,1592438668,84,80.89,12.66
161,praya,14.92,-23.51,82.4,4,CV,1592438585,58,82.4,17.22
162,sao miguel do araguaia,-13.28,-50.16,71.83,0,BR,1592438423,55,71.83,4.94
163,shimoda,34.67,138.95,73.4,75,JP,1592438668,83,73.4,8.05
164,iwanai,42.97,140.51,61.0,95,JP,1592438668,89,61.0,2.66
165,bathsheba,13.22,-59.52,82.4,20,BB,1592438669,74,82.4,17.22
166,bubaque,11.28,-15.83,79.92,14,GW,1592438669,87,79.92,15.57
167,yellowknife,62.46,-114.35,63.0,40,CA,1592438639,44,63.0,16.11
168,kargasok,59.06,80.86,56.75,62,RU,1592438669,74,56.75,8.23
169,brovary,50.5,30.77,66.99,21,UA,1592438458,93,66.99,4.47
170,pitimbu,-7.47,-34.81,73.4,7,BR,1592438669,88,73.4,5.82
171,bundaberg,-24.85,152.35,71.01,13,AU,1592438670,72,71.01,8.05
172,bolobo,-2.17,16.23,71.98,27,CD,1592438670,63,71.98,2.24
173,touros,-5.2,-35.46,73.4,20,BR,1592438569,94,73.4,3.36
174,chkalovsk,56.76,43.24,64.4,75,RU,1592438670,100,64.4,7.81
175,ambilobe,-13.2,49.05,62.4,7,MG,1592438670,62,62.4,3.67
176,yarada,17.65,83.27,80.6,90,IN,1592438670,94,80.6,2.24
177,chuy,-33.7,-53.46,66.38,100,UY,1592438671,81,66.38,12.08
178,sao filipe,14.9,-24.5,76.15,2,CV,1592438671,79,76.15,13.2
179,fredericton,45.95,-66.67,78.8,1,CA,1592438587,41,78.8,13.87
180,tazovskiy,67.47,78.7,38.64,40,RU,1592438387,75,38.64,8.72
181,ushtobe,45.25,77.98,60.35,2,KZ,1592438671,60,60.35,12.41
182,te anau,-45.42,167.72,42.13,25,NZ,1592438671,72,42.13,7.25
183,boajibu,8.18,-11.33,74.66,73,SL,1592438671,96,74.66,2.62
184,koslan,63.46,48.9,39.72,19,RU,1592438672,82,39.72,3.33
185,awjilah,29.11,21.29,68.27,0,LY,1592438672,70,68.27,10.8
186,guane,22.2,-84.09,79.72,100,CU,1592438672,82,79.72,6.55
187,hithadhoo,-0.6,73.08,84.18,54,MV,1592438672,74,84.18,8.34
188,portland,45.52,-122.68,73.99,40,US,1592438427,43,73.99,6.93
189,mahebourg,-20.41,57.7,69.8,75,MU,1592438555,88,69.8,18.34
190,avarua,-21.21,-159.78,71.6,53,CK,1592438650,78,71.6,6.93
191,manthani,18.65,79.67,79.29,100,IN,1592438672,79,79.29,9.15
192,villazon,-22.09,-65.59,48.87,65,BO,1592438672,35,48.87,13.09
193,hidalgo,20.5,-99.0,70.54,0,MX,1592438673,63,70.54,10.36
194,aplahoue,6.93,1.68,74.17,68,BJ,1592438673,95,74.17,3.65
195,wajir,1.75,40.06,74.41,84,KE,1592438673,67,74.41,16.98
196,kudahuvadhoo,2.67,72.89,83.3,70,MV,1592438673,77,83.3,6.89
197,yumen,40.28,97.2,74.82,99,CN,1592438673,18,74.82,8.88
198,praia da vitoria,38.73,-27.07,62.6,75,PT,1592438673,82,62.6,8.39
199,coaticook,45.13,-71.8,78.8,20,CA,1592438674,44,78.8,5.82
200,anadyr,64.75,177.48,69.8,20,RU,1592438465,46,69.8,8.95
201,selenginsk,52.01,106.86,55.4,48,RU,1592438674,66,55.4,2.24
202,kaitangata,-46.28,169.85,48.99,8,NZ,1592438674,52,48.99,11.01
203,bambous virieux,-20.34,57.76,69.8,75,MU,1592438674,88,69.8,18.34
204,aloleng,16.13,119.78,83.75,76,PH,1592438674,76,83.75,6.04
205,mehamn,71.04,27.85,48.38,10,NO,1592438674,69,48.38,5.91
206,rognan,67.1,15.39,53.01,100,NO,1592438675,81,53.01,0.69
207,oga,46.46,10.35,46.4,75,IT,1592438675,100,46.4,2.24
208,ancud,-41.87,-73.82,50.0,75,CL,1592438675,87,50.0,11.41
209,peoria,40.77,-89.77,84.2,1,US,1592438675,35,84.2,9.17
210,pisco,-13.7,-76.22,66.2,0,PE,1592438675,77,66.2,13.87
211,kawakawa,-35.38,174.07,61.0,82,NZ,1592438675,96,61.0,11.99
212,bonthe,7.53,-12.51,79.0,76,SL,1592438676,87,79.0,6.62
213,aksarka,66.56,67.8,39.27,52,RU,1592438676,73,39.27,9.84
214,karratha,-20.74,116.85,72.07,0,AU,1592438676,48,72.07,5.88
215,chapais,49.78,-74.85,86.0,1,CA,1592438676,37,86.0,12.75
216,la ronge,55.1,-105.28,50.0,90,CA,1592438676,71,50.0,14.99
217,goderich,43.75,-81.72,79.0,0,CA,1592438676,56,79.0,4.29
218,airai,-8.93,125.41,62.83,63,TL,1592438677,91,62.83,5.84
219,thinadhoo,0.53,72.93,83.8,59,MV,1592438677,77,83.8,7.52
220,coihaique,-45.58,-72.07,41.0,40,CL,1592438531,86,41.0,5.82
221,the valley,18.22,-63.06,84.2,20,AI,1592438530,70,84.2,10.29
222,iquique,-20.22,-70.14,62.6,38,CL,1592438677,77,62.6,13.87
223,fortuna,40.6,-124.16,68.0,40,US,1592438677,68,68.0,17.22
224,qingdao,36.1,120.37,66.2,40,CN,1592438448,93,66.2,2.24
225,ostrovnoy,68.05,39.51,42.64,2,RU,1592438678,78,42.64,9.57
226,hambantota,6.12,81.12,80.47,81,LK,1592438678,85,80.47,12.73
227,lyngseidet,69.58,20.22,48.2,1,NO,1592438678,76,48.2,5.82
228,halifax,44.65,-63.57,66.0,34,CA,1592438633,69,66.0,8.1
229,mapiripan,2.89,-72.13,75.54,79,CO,1592438678,85,75.54,2.84
230,semey,50.41,80.23,59.0,75,KZ,1592438678,77,59.0,11.18
231,codrington,-38.27,141.97,52.77,70,AU,1592438679,74,52.77,14.7
232,haines junction,60.75,-137.51,61.88,45,CA,1592438679,43,61.88,11.5
233,altamira,-3.2,-52.21,77.47,76,BR,1592438475,77,77.47,2.28
234,novyy urengoy,66.08,76.63,42.67,17,RU,1592438679,64,42.67,9.98
235,lebu,-37.62,-73.65,52.68,82,CL,1592438531,85,52.68,18.97
236,vardo,70.37,31.11,45.21,8,NO,1592438679,81,45.21,10.6
237,los llanos de aridane,28.66,-17.92,71.6,13,ES,1592438680,68,71.6,3.36
238,montepuez,-13.13,39.0,62.85,62,MZ,1592438680,80,62.85,10.38
239,namanyere,-7.52,31.05,54.57,0,TZ,1592438680,70,54.57,6.98
240,margate,51.38,1.39,60.01,100,GB,1592438533,100,60.01,1.01
241,ocampo,21.65,-101.5,73.11,57,MX,1592438680,36,73.11,14.41
242,lock haven,41.14,-77.45,75.99,89,US,1592438680,78,75.99,2.77
243,saint-augustin,51.23,-58.65,56.64,100,CA,1592438681,81,56.64,10.6
244,marshall,34.38,-86.33,75.0,90,US,1592438681,56,75.0,9.17
245,kismayo,-0.36,42.55,78.01,38,SO,1592438681,79,78.01,16.51
246,shenjiamen,29.96,122.3,80.28,68,CN,1592438681,80,80.28,10.98
247,guerrero negro,27.98,-114.06,70.84,0,MX,1592438539,59,70.84,18.84
248,lipari,38.47,14.95,70.0,2,IT,1592438681,80,70.0,4.0
249,araouane,18.9,-3.53,98.78,2,ML,1592438681,8,98.78,9.82
250,orichi,58.4,49.06,44.56,0,RU,1592438682,74,44.56,4.85
251,taltal,-25.4,-70.48,60.39,0,CL,1592438682,64,60.39,3.6
252,fare,-16.7,-151.02,82.22,100,PF,1592438682,77,82.22,12.44
253,valparaiso,-33.04,-71.63,53.6,75,CL,1592438539,76,53.6,4.7
254,melfort,52.87,-104.62,46.4,90,CA,1592438682,100,46.4,18.34
255,walvis bay,-22.96,14.51,73.4,0,NA,1592438682,20,73.4,17.22
256,yuci,37.68,112.73,64.4,0,CN,1592438682,68,64.4,2.24
257,ribeira grande,38.52,-28.7,63.23,94,PT,1592438683,78,63.23,10.09
258,jutai,-5.18,-68.9,78.04,63,BR,1592438683,76,78.04,1.68
259,pevek,69.7,170.31,43.59,100,RU,1592438683,63,43.59,9.04
260,port hardy,50.7,-127.42,60.8,75,CA,1592438479,72,60.8,6.93
261,alta floresta,-9.88,-56.09,72.45,10,BR,1592438683,73,72.45,3.58
262,bontang,0.13,117.5,78.49,72,ID,1592438683,89,78.49,6.89
263,maniitsoq,65.42,-52.9,37.08,39,GL,1592438684,81,37.08,8.25
264,pavlodar,52.3,76.95,48.2,53,KZ,1592438684,81,48.2,4.47
265,berlevag,70.86,29.09,47.44,30,NO,1592438555,73,47.44,6.35
266,choya,52.01,86.55,63.01,71,RU,1592438684,68,63.01,3.04
267,namibe,-15.2,12.15,71.42,0,AO,1592438684,58,71.42,4.41
268,santa cruz de la palma,28.68,-17.76,71.6,12,ES,1592438684,68,71.6,3.36
269,chancay,-11.57,-77.27,64.4,90,PE,1592438685,77,64.4,9.17
270,kiunga,-6.12,141.29,77.86,76,PG,1592438685,85,77.86,3.49
271,finschhafen,-6.6,147.87,81.52,65,PG,1592438685,73,81.52,11.07
272,alindao,5.03,21.21,69.87,97,CF,1592438685,94,69.87,2.73
273,ornskoldsvik,63.29,18.72,53.6,58,SE,1592438685,93,53.6,4.7
274,vryburg,-26.96,24.73,38.32,1,ZA,1592438685,89,38.32,2.8
275,pokhara,28.23,83.98,72.99,100,NP,1592438583,85,72.99,0.49
276,nyborg,55.31,10.79,62.01,96,DK,1592438501,97,62.01,5.28
277,jining,35.41,116.58,66.33,100,CN,1592438428,84,66.33,9.15
278,lavrentiya,65.58,-171.0,50.81,43,RU,1592438552,63,50.81,5.32
279,baykit,61.67,96.37,59.61,94,RU,1592438686,52,59.61,4.03
280,cairns,-16.92,145.77,75.99,75,AU,1592438686,83,75.99,12.75
281,ascension,30.22,-90.9,90.0,1,US,1592438411,30,90.0,1.28
282,wamba,8.93,8.6,73.53,98,NG,1592438686,92,73.53,2.39
283,davila,18.47,120.58,82.4,20,PH,1592438686,83,82.4,4.7
284,matara,5.95,80.54,79.2,81,LK,1592438687,90,79.2,7.47
285,puerto baquerizo moreno,-0.9,-89.6,69.31,46,EC,1592438687,85,69.31,10.45
286,kieta,-6.22,155.63,86.41,100,PG,1592438687,59,86.41,0.87
287,quelimane,-17.88,36.89,66.2,75,MZ,1592438687,93,66.2,8.05
288,ende,-8.84,121.66,78.89,97,ID,1592438687,71,78.89,5.35
289,muncar,-8.43,114.33,78.03,16,ID,1592438687,88,78.03,5.06
290,usvyaty,55.75,30.75,61.52,34,RU,1592438687,89,61.52,3.91
291,isangel,-19.55,169.27,80.6,40,VU,1592438530,69,80.6,9.17
292,longyearbyen,78.22,15.64,37.4,40,SJ,1592438415,76,37.4,10.29
293,sinnamary,5.38,-52.95,79.07,95,GF,1592438688,84,79.07,5.48
294,excelsior springs,39.34,-94.23,84.2,40,US,1592438688,48,84.2,10.29
295,okha,53.57,142.95,39.65,100,RU,1592438688,95,39.65,10.67
296,marsa matruh,31.35,27.25,69.8,0,EG,1592438688,77,69.8,9.17
297,monrovia,6.3,-10.8,71.6,75,LR,1592438467,94,71.6,9.17
298,pacific grove,36.62,-121.92,75.2,1,US,1592438533,40,75.2,9.17
299,alakurtti,66.97,30.35,52.34,0,RU,1592438689,65,52.34,2.48
300,tiksi,71.69,128.87,54.5,100,RU,1592438689,60,54.5,6.78
301,algete,40.6,-3.5,66.2,49,ES,1592438689,52,66.2,4.7
302,kiruna,67.86,20.23,57.2,61,SE,1592438689,47,57.2,2.93
303,wuwei,37.93,102.64,69.01,0,CN,1592438690,41,69.01,1.99
304,farafangana,-22.82,47.83,66.58,73,MG,1592438690,74,66.58,6.04
305,ningyang,35.76,116.79,65.86,100,CN,1592438690,84,65.86,7.45
306,modasa,23.47,73.3,83.62,85,IN,1592438690,74,83.62,14.05
307,gambiran,-6.8,111.5,76.57,30,ID,1592438690,84,76.57,3.91
308,fort-shevchenko,44.51,50.26,79.83,83,KZ,1592438690,29,79.83,12.75
309,cayenne,4.93,-52.33,77.0,97,GF,1592438690,100,77.0,5.35
310,ponte nova,-20.42,-42.91,60.08,22,BR,1592438691,87,60.08,0.98
311,beira,-19.84,34.84,66.2,75,MZ,1592438691,88,66.2,11.41
312,padilla,3.22,-76.31,77.0,75,CO,1592438691,73,77.0,9.17
313,watertown,42.37,-71.18,79.0,20,US,1592438590,56,79.0,8.05
314,tiznit,29.58,-9.5,65.8,15,MA,1592438691,56,65.8,2.82
315,luanda,-8.84,13.23,71.6,75,AO,1592438481,94,71.6,2.24
316,bhadrachalam,17.67,80.88,80.22,100,IN,1592438691,81,80.22,4.54
317,gizo,-8.1,156.84,83.62,95,SB,1592438691,77,83.62,10.4
318,hasaki,35.73,140.83,73.99,75,JP,1592438692,78,73.99,6.93
319,yerofey pavlovich,53.97,121.97,60.12,96,RU,1592438692,51,60.12,7.58
320,bilma,18.69,12.92,84.56,9,NE,1592438692,14,84.56,3.62
321,shingu,33.73,135.98,71.6,75,JP,1592438692,68,71.6,8.05
322,hofn,64.25,-15.21,48.15,5,IS,1592438571,68,48.15,8.55
323,namatanai,-3.67,152.43,83.43,60,PG,1592438692,73,83.43,9.66
324,lagoa,39.05,-27.98,63.0,85,PT,1592438534,80,63.0,8.55
325,la espigadilla,7.88,-80.38,80.64,57,PA,1592438692,84,80.64,1.61
326,alenquer,-1.94,-54.74,79.48,79,BR,1592438693,78,79.48,2.33
327,young,-32.68,-57.63,70.81,100,UY,1592438465,75,70.81,15.08
328,santa rosa,14.31,121.11,89.01,20,PH,1592438473,66,89.01,2.24
329,sibenik,43.73,15.91,68.0,9,HR,1592438693,82,68.0,3.36
330,oyama,36.3,139.8,69.8,75,JP,1592438693,73,69.8,2.24
331,vila velha,-20.33,-40.29,70.0,75,BR,1592438693,83,70.0,3.36
332,tirumullaivasal,11.23,79.83,83.89,96,IN,1592438693,66,83.89,8.08
333,qiongshan,20.01,110.35,80.6,0,CN,1592438693,88,80.6,6.71
334,pasighat,28.07,95.33,76.32,100,IN,1592438694,88,76.32,0.87
335,byron bay,-28.65,153.62,61.0,75,AU,1592438694,93,61.0,6.93
336,akyab,20.15,92.9,82.49,100,MM,1592438694,82,82.49,9.08
337,dir,35.21,71.88,67.78,0,PK,1592438694,27,67.78,7.83
338,caravelas,-17.71,-39.25,71.49,32,BR,1592438552,78,71.49,8.32
339,curup,-3.47,102.53,68.81,88,ID,1592438694,90,68.81,3.38
340,moron,-34.65,-58.62,75.2,90,AR,1592438694,60,75.2,12.75
341,caraballeda,10.61,-66.85,73.0,22,VE,1592438695,84,73.0,8.03
342,haputale,6.77,80.96,62.29,80,LK,1592438695,91,62.29,4.76
343,mayo,38.89,-76.51,69.8,90,US,1592438695,88,69.8,9.17
344,moose factory,51.26,-80.61,91.4,1,CA,1592438695,33,91.4,19.46
345,victoria point,-27.58,153.3,70.0,2,AU,1592438695,71,70.0,13.15
346,marzuq,14.4,46.47,83.97,68,YE,1592438695,23,83.97,4.14
347,corner brook,48.97,-57.95,60.8,90,CA,1592438696,67,60.8,5.82
348,kidal,18.44,1.41,94.73,18,ML,1592438696,13,94.73,10.76
349,chulucanas,-5.09,-80.16,73.27,1,PE,1592438696,59,73.27,10.38
350,santa catalina,9.33,122.86,83.35,100,PH,1592438696,72,83.35,0.09
351,coquimbo,-29.95,-71.34,55.4,15,CL,1592438696,76,55.4,8.05
352,porbandar,21.64,69.61,84.36,86,IN,1592438696,82,84.36,12.84
353,castrillon,43.4,-6.79,57.2,90,ES,1592438696,82,57.2,3.36
354,smidovich,48.6,133.82,56.89,86,RU,1592438697,74,56.89,9.28
355,sao raimundo nonato,-9.02,-42.7,78.94,62,BR,1592438484,50,78.94,8.81
356,bandarbeyla,9.49,50.81,82.0,87,SO,1592438697,65,82.0,31.27
357,mudanjiang,44.58,129.6,65.95,49,CN,1592438697,56,65.95,9.71
358,shaoyang,27.23,111.45,79.74,100,CN,1592438697,81,79.74,2.3
359,laurens,32.45,-82.92,75.99,75,US,1592438697,60,75.99,5.82
360,shache,38.42,77.24,69.85,3,CN,1592438698,31,69.85,7.67
361,henties bay,-22.12,14.28,73.0,0,NA,1592438698,29,73.0,1.01
362,havre-saint-pierre,50.23,-63.6,60.8,75,CA,1592438698,67,60.8,12.75
363,lata,40.16,-8.33,61.0,2,PT,1592438699,87,61.0,5.99
364,saint anthony,45.02,-93.22,87.8,20,US,1592438544,33,87.8,17.22
365,ampanihy,-24.7,44.75,58.17,0,MG,1592438699,78,58.17,8.52
366,wanning,18.8,110.4,83.53,0,CN,1592438699,79,83.53,12.21
367,meridian,43.61,-116.39,69.01,75,US,1592438441,40,69.01,12.75
368,bereda,43.27,-7.54,48.99,48,ES,1592438699,98,48.99,3.0
369,loandjili,-4.76,11.86,75.2,90,CG,1592438700,94,75.2,2.24
370,manavalakurichi,8.13,77.3,80.6,40,IN,1592438700,88,80.6,2.24
371,mount isa,-20.73,139.5,71.6,0,AU,1592438417,46,71.6,10.29
372,asfi,32.3,-9.24,68.45,66,MA,1592438700,80,68.45,10.85
373,teacapan,22.55,-105.75,84.4,0,MX,1592438700,55,84.4,6.53
374,tonala,20.62,-103.23,89.6,40,MX,1592438513,25,89.6,12.75
375,tateyama,34.98,139.87,75.99,75,JP,1592438700,83,75.99,8.05
376,chudovo,59.12,31.68,64.35,10,RU,1592438701,96,64.35,4.03
377,cap malheureux,-19.98,57.61,68.0,50,MU,1592438701,89,68.0,7.0
378,viramgam,23.12,72.05,82.4,40,IN,1592438701,88,82.4,6.93
379,ylojarvi,61.56,23.6,59.0,20,FI,1592438701,87,59.0,1.12
380,narsaq,60.92,-46.05,42.8,99,GL,1592438701,76,42.8,11.41
381,clyde river,70.47,-68.59,33.8,90,CA,1592438701,85,33.8,3.36
382,palora,-1.7,-77.93,73.4,40,EC,1592438702,83,73.4,2.24
383,aksu,41.12,80.26,74.12,89,CN,1592438550,30,74.12,2.44
384,boende,-0.22,20.87,70.59,76,CD,1592438702,64,70.59,1.86
385,willowmore,-33.29,23.49,44.31,0,ZA,1592438702,59,44.31,4.54
386,mill valley,37.91,-122.55,75.99,0,US,1592438450,30,75.99,15.01
387,xining,36.62,101.77,57.43,6,CN,1592438702,54,57.43,1.79
388,nago,26.59,127.98,86.0,40,JP,1592438703,83,86.0,16.11
389,russkiy aktash,55.04,52.12,55.4,20,RU,1592438703,76,55.4,11.18
390,chengde,40.97,117.94,73.47,98,CN,1592438703,53,73.47,3.94
391,zarubino,42.63,131.09,58.53,97,RU,1592438703,90,58.53,10.33
392,husavik,66.04,-17.34,48.2,41,IS,1592438550,87,48.2,1.12
393,rostovka,55.38,71.89,51.4,77,RU,1592438704,93,51.4,12.53
394,uchiza,-8.46,-76.46,73.85,20,PE,1592438704,78,73.85,2.26
395,eureka,40.8,-124.16,72.0,0,US,1592438467,75,72.0,10.0
396,sur,22.57,59.53,87.62,55,OM,1592438704,59,87.62,6.55
397,qaanaaq,77.48,-69.36,32.16,19,GL,1592438705,94,32.16,2.33
398,stykkisholmur,65.08,-22.73,48.99,100,IS,1592438705,70,48.99,6.38
399,vostok,46.49,135.88,48.45,100,RU,1592438705,100,48.45,1.74
400,yar-sale,66.83,70.83,38.97,14,RU,1592438705,73,38.97,12.26
401,komsomolets,53.75,62.07,56.43,64,KZ,1592438705,89,56.43,10.94
402,omboue,-1.57,9.26,71.85,100,GA,1592438706,93,71.85,4.9
403,eidsvag,62.78,8.07,60.8,85,NO,1592438706,87,60.8,2.24
404,high level,58.52,-117.14,60.8,75,CA,1592438706,67,60.8,9.17
405,northam,51.03,-4.22,55.99,100,GB,1592438707,98,55.99,1.01
406,bethel,41.37,-73.41,73.4,1,US,1592438707,64,73.4,9.17
407,ternate,0.8,127.4,83.14,53,ID,1592438707,73,83.14,5.14
408,matagami,49.75,-77.63,89.6,1,CA,1592438707,33,89.6,13.87
409,babushkin,51.71,105.86,58.06,60,RU,1592438707,55,58.06,3.04
410,la fria,8.22,-72.24,87.8,20,VE,1592438707,55,87.8,9.17
411,simoes,-7.6,-40.82,73.15,6,BR,1592438708,65,73.15,13.02
412,seymchan,62.88,152.43,73.76,45,RU,1592438708,39,73.76,7.45
413,ulaangom,49.98,92.07,69.98,96,MN,1592438708,39,69.98,1.7
414,kalemie,-5.95,29.19,68.16,0,CD,1592438708,69,68.16,1.25
415,athabasca,54.72,-113.29,63.93,76,CA,1592438708,62,63.93,7.94
416,itauna,-20.08,-44.58,57.42,41,BR,1592438445,87,57.42,5.17
417,hami,42.8,93.45,86.45,82,CN,1592438708,13,86.45,1.92
418,kununurra,-15.77,128.73,75.2,0,AU,1592438534,42,75.2,13.87
419,wairoa,-39.03,177.37,63.0,99,NZ,1592438709,63,63.0,1.99
420,oussouye,12.48,-16.55,79.43,20,SN,1592438709,81,79.43,11.45
421,barkly west,-28.54,24.52,42.8,0,ZA,1592438709,87,42.8,6.93
422,north ogden,41.31,-111.96,63.0,40,US,1592438709,29,63.0,8.05
423,heihe,50.24,127.49,55.4,20,CN,1592438709,93,55.4,4.47
424,plettenberg bay,-34.05,23.37,61.03,0,ZA,1592438710,44,61.03,7.49
425,ikalamavony,-21.15,46.58,53.01,16,MG,1592438710,76,53.01,10.4
426,novyy urgal,51.07,132.56,59.0,41,RU,1592438710,48,59.0,3.0
427,limbang,4.75,115.0,80.6,75,MY,1592438710,88,80.6,2.24
428,rudbar,30.15,62.6,81.97,0,AF,1592438610,16,81.97,10.31
429,maldonado,-34.67,-54.92,69.01,90,UY,1592438572,72,69.01,17.22
430,price,39.6,-110.81,69.8,1,US,1592438711,15,69.8,21.92
431,shamary,57.34,58.22,40.91,0,RU,1592438711,70,40.91,4.34
432,ichinoseki,38.92,141.13,66.2,40,JP,1592438711,77,66.2,1.12
433,mareeba,-17.0,145.43,75.99,99,AU,1592438711,81,75.99,5.99
434,forestville,38.85,-76.88,69.01,90,US,1592438711,100,69.01,12.75
435,sovetskiy,61.36,63.58,43.43,33,RU,1592438711,73,43.43,8.63
436,kamen-rybolov,44.75,132.04,55.74,79,RU,1592438711,86,55.74,9.57
437,san cristobal,7.77,-72.22,87.8,20,VE,1592438530,55,87.8,9.17
438,san miguel,13.48,-88.18,89.6,20,SV,1592438571,66,89.6,2.24
439,bria,6.54,21.99,68.38,100,CF,1592438712,96,68.38,2.44
440,mandalgovi,45.76,106.27,64.13,32,MN,1592438712,59,64.13,9.53
441,fukue,32.69,128.84,71.6,75,JP,1592438712,100,71.6,16.67
442,along,28.17,94.77,73.96,100,IN,1592438712,90,73.96,0.54
443,natal,-5.79,-35.21,75.2,12,BR,1592438561,83,75.2,8.05
444,san gabriel casa blanca,18.15,-97.13,81.48,11,MX,1592438713,52,81.48,9.13
445,noumea,-22.28,166.46,77.0,75,NC,1592438431,65,77.0,3.36
446,kaohsiung,22.62,120.31,87.8,75,TW,1592438424,66,87.8,2.24
447,hualmay,-11.1,-77.61,62.49,18,PE,1592438713,83,62.49,12.03
448,najran,17.49,44.13,82.4,40,SA,1592438713,18,82.4,4.7
449,begunitsy,59.59,29.32,62.6,23,RU,1592438713,88,62.6,6.71
450,bogotol,56.21,89.53,55.33,1,RU,1592438713,81,55.33,9.53
451,algiers,36.75,3.04,68.0,40,DZ,1592438444,82,68.0,5.1
452,kodinsk,58.69,99.18,58.42,58,RU,1592438714,49,58.42,3.53
453,biryusinsk,55.96,97.82,56.37,0,RU,1592438714,62,56.37,12.21
454,mexico,15.06,120.72,80.6,75,PH,1592438714,78,80.6,2.24
455,bambari,5.77,20.68,69.89,96,CF,1592438714,92,69.89,1.21
456,miro khan,27.76,68.09,97.12,0,PK,1592438714,30,97.12,18.16
457,skopin,53.82,39.55,60.01,28,RU,1592438714,89,60.01,1.66
458,nabire,-3.37,135.48,84.11,52,ID,1592438715,67,84.11,0.74
459,norman wells,65.28,-126.83,86.0,40,CA,1592438649,30,86.0,14.99
460,nantucket,41.28,-70.1,60.8,20,US,1592438715,82,60.8,10.29
461,potsdam,52.4,13.07,72.0,64,DE,1592438715,65,72.0,5.59
462,mitu,1.2,-70.17,73.4,75,CO,1592438715,97,73.4,1.16
463,belaya gora,68.53,146.42,87.67,0,RU,1592438715,20,87.67,9.01
464,gat,31.61,34.76,75.99,0,IL,1592438716,44,75.99,8.95
465,hobyo,5.35,48.53,79.45,100,SO,1592438716,71,79.45,24.02
466,ilam,26.92,87.92,67.53,92,NP,1592438716,95,67.53,2.93
467,necochea,-38.55,-58.74,63.0,100,AR,1592438716,99,63.0,8.9
468,rawson,-43.3,-65.1,52.9,99,AR,1592438716,49,52.9,9.33
469,beringovskiy,63.05,179.32,52.18,4,RU,1592438716,55,52.18,5.48
470,dingle,11.0,122.67,83.7,100,PH,1592438545,72,83.7,4.18
471,linxia,35.6,103.21,62.02,29,CN,1592438717,49,62.02,2.77
472,launceston,-41.45,147.17,44.01,90,AU,1592438717,93,44.01,3.31
473,tarata,-17.62,-66.02,68.0,21,BO,1592438717,24,68.0,4.7
474,tiarei,-17.53,-149.33,82.4,75,PF,1592438717,74,82.4,8.05
475,bonavista,48.65,-53.11,54.27,100,CA,1592438546,63,54.27,18.14
476,luena,-11.78,19.92,50.97,0,AO,1592438717,62,50.97,6.67
477,longkou,37.65,120.33,68.27,100,CN,1592438718,84,68.27,6.67
478,ust-omchug,61.15,149.63,66.42,66,RU,1592438497,44,66.42,0.98
479,shu,43.6,73.76,56.16,13,KZ,1592438718,66,56.16,5.55
480,juybar,36.64,52.91,73.4,11,IR,1592438718,73,73.4,2.24
481,bela vista do paraiso,-23.0,-51.19,71.6,13,BR,1592438718,68,71.6,2.24
482,vallenar,-28.57,-70.76,55.49,22,CL,1592438718,58,55.49,3.74
483,goedereede,51.82,3.98,61.0,100,NL,1592438718,95,61.0,1.01
484,iquitos,-3.75,-73.25,82.4,20,PE,1592438524,78,82.4,1.12
485,wagar,16.15,36.2,91.9,22,SD,1592438719,30,91.9,9.37
486,vanimo,-2.67,141.3,83.37,7,PG,1592438719,71,83.37,5.39
487,umm lajj,25.02,37.27,80.04,0,SA,1592438719,55,80.04,1.83
488,nalut,30.33,10.85,80.17,0,LY,1592438719,16,80.17,10.83
489,mayumba,-3.43,10.66,72.0,55,GA,1592438719,91,72.0,2.01
490,sao mateus,-18.72,-39.86,66.52,12,BR,1592438604,89,66.52,5.19
491,syracuse,37.09,15.28,66.99,0,IT,1592438569,88,66.99,4.7
492,raalte,52.39,6.28,63.0,100,NL,1592438719,96,63.0,3.0
493,san patricio,19.22,-104.7,84.2,40,MX,1592438720,74,84.2,11.41
494,saint-francois,46.42,3.91,57.2,75,FR,1592438720,76,57.2,2.24
495,satao,40.74,-7.73,51.01,1,PT,1592438720,1,51.01,1.99
496,lasa,46.62,10.7,46.4,75,IT,1592438720,87,46.4,5.82
497,voh,-20.97,164.7,78.12,76,NC,1592438720,59,78.12,7.96
498,sabha,27.04,14.43,75.96,0,LY,1592438721,18,75.96,11.25
499,valguarnera caropepe,37.5,14.39,66.99,0,IT,1592438721,68,66.99,4.16
500,cockburn town,21.46,-71.14,82.4,40,TC,1592438721,69,82.4,11.41
501,jaque,7.52,-78.17,79.86,98,PA,1592438721,80,79.86,1.5
502,borogontsy,62.67,131.17,76.55,0,RU,1592438721,31,76.55,4.81
503,sola,-13.88,167.55,80.46,97,VU,1592438721,82,80.46,23.6
504,baturaja,-4.13,104.17,73.69,81,ID,1592438721,92,73.69,2.46
505,kompaniyivka,48.25,32.21,63.09,38,UA,1592438722,91,63.09,3.65
506,umred,20.85,79.33,78.8,75,IN,1592438722,88,78.8,5.82
507,korla,41.76,86.15,80.01,4,CN,1592438722,42,80.01,3.0
508,linqu,36.52,118.54,63.99,100,CN,1592438722,85,63.99,4.52
509,bani,18.28,-70.33,84.0,99,DO,1592438722,79,84.0,3.0
510,alta,69.97,23.27,53.01,0,NO,1592438456,71,53.01,1.12
511,guarapari,-20.67,-40.5,70.0,75,BR,1592438529,83,70.0,3.36
512,dudinka,69.41,86.18,41.0,39,RU,1592438723,65,41.0,4.47
513,avera,33.19,-82.53,73.4,90,US,1592438723,60,73.4,3.53
514,muroran,42.32,140.99,62.6,75,JP,1592438723,82,62.6,3.36
515,ozernovskiy,51.5,156.52,45.14,100,RU,1592438723,86,45.14,4.07
516,noshiro,40.2,140.02,62.6,40,JP,1592438723,88,62.6,2.24
517,denpasar,-8.65,115.22,82.4,75,ID,1592438678,94,82.4,17.22
518,gualaquiza,-3.4,-78.55,64.87,14,EC,1592438724,90,64.87,1.23
519,martapura,-3.42,114.85,79.97,74,ID,1592438724,81,79.97,5.75
520,nchelenge,-9.35,28.73,61.21,0,ZM,1592438724,64,61.21,4.81
521,seydi,39.48,62.91,72.09,0,TM,1592438724,22,72.09,9.08
522,mokobeng,-23.0,27.67,43.23,0,BW,1592438724,89,43.23,0.89
523,leo,11.1,-2.1,79.95,9,BF,1592438724,74,79.95,6.51
524,sakaiminato,35.55,133.23,69.8,90,JP,1592438724,88,69.8,5.82
525,iida,35.52,137.82,68.0,100,JP,1592438725,92,68.0,2.84
526,antalaha,-14.9,50.28,68.58,28,MG,1592438725,78,68.58,11.36
527,bluefields,12.01,-83.76,82.4,75,NI,1592438725,83,82.4,6.29
528,idenao,4.25,9.0,75.2,40,CM,1592438725,88,75.2,2.24
529,yatou,37.15,122.38,67.77,100,CN,1592438725,76,67.77,5.19
530,kysyl-syr,63.9,122.76,72.28,73,RU,1592438725,55,72.28,4.32
531,brae,60.4,-1.35,53.6,51,GB,1592438580,93,53.6,0.25
532,tangermunde,52.54,11.98,66.99,96,DE,1592438725,65,66.99,1.99
533,san rafael del sur,11.85,-86.44,86.0,40,NI,1592438726,62,86.0,4.7
534,puerto madryn,-42.77,-65.04,53.15,97,AR,1592438726,50,53.15,9.86
535,vitim,59.45,112.56,63.5,68,RU,1592438726,61,63.5,1.41
536,paso de carrasco,-34.86,-56.05,72.0,99,UY,1592438570,68,72.0,12.75
537,russell,32.35,-85.2,78.8,90,US,1592438726,54,78.8,4.7
538,bud,39.45,-86.18,81.0,1,US,1592438726,39,81.0,4.7
539,ayan,56.45,138.17,42.67,98,RU,1592438726,96,42.67,4.83
540,usinsk,65.99,57.53,38.5,74,RU,1592438727,75,38.5,16.55
541,kalmar,56.66,16.36,52.0,4,SE,1592438727,100,52.0,2.24
542,karpathos,35.51,27.21,70.77,1,GR,1592438727,83,70.77,12.1
543,roebourne,-20.78,117.13,72.48,0,AU,1592438727,47,72.48,5.37
544,santa fe,-31.63,-60.7,75.0,100,AR,1592438727,67,75.0,8.01
545,san jose,37.34,-121.89,87.01,1,US,1592438464,16,87.01,16.11
546,khani,41.96,42.96,66.2,90,GE,1592438727,100,66.2,4.7
